[
    { "lat": 28.6139, "lon": 77.2090, "city": "New Delhi" },
    { "lat": 39.9334, "lon": 32.8597, "city": "Ankara" },
    { "lat": 40.7128, "lon": -74.0060, "city": "New York" },
    { "lat": 34.0522, "lon": -118.2437, "city": "Los Angeles" },
    { "lat": 35.6895, "lon": 139.6917, "city": "Tokyo" },
    { "lat": 51.5074, "lon": -0.1278, "city": "London" },
    { "lat": 48.8566, "lon": 2.3522, "city": "Paris" },
    { "lat": 55.7558, "lon": 37.6173, "city": "Moscow" },
    { "lat": 40.7306, "lon": -73.9352, "city": "Brooklyn" },
    { "lat": -33.8688, "lon": 151.2093, "city": "Sydney" },
    { "lat": 41.8781, "lon": -87.6298, "city": "Chicago" },
    { "lat": 36.7783, "lon": -119.4179, "city": "California" },
    { "lat": 56.1610, "lon": 15.5862, "city": "Karlskrona" },
    { "lat": 19.4326, "lon": -99.1332, "city": "Mexico City" },
    { "lat": 39.9042, "lon": 116.4074, "city": "Beijing" },
    { "lat": 39.7392, "lon": -104.9903, "city": "Denver" },
    { "lat": 32.7157, "lon": -117.1611, "city": "San Diego" },
    { "lat": 36.1735, "lon": -115.1365, "city": "Las Vegas" },
    { "lat": 25.276987, "lon": 55.296249, "city": "Dubai" },
    { "lat": 37.7749, "lon": -122.4194, "city": "San Francisco" },
    { "lat": 52.379189, "lon": 4.900937, "city": "Amsterdam" },
    { "lat": 23.8103, "lon": 90.4125, "city": "Dhaka" },
    { "lat": 52.5200, "lon": 13.4050, "city": "Berlin" },
    { "lat": 35.6870, "lon": 139.7023, "city": "Saitama" },
    { "lat": 52.4064, "lon": 16.9252, "city": "Poznan" },
    { "lat": 23.1291, "lon": 113.2644, "city": "Guangzhou" },
    { "lat": 22.3964, "lon": 114.1095, "city": "Hong Kong" },
    { "lat": 39.5501, "lon": -105.7821, "city": "Colorado" },
    { "lat": 13.7563, "lon": 100.5018, "city": "Bangkok" },
    { "lat": 40.7128, "lon": -74.0060, "city": "New York City" },
    { "lat": 35.2210, "lon": -80.8431, "city": "Charlotte" },
    { "lat": 24.8860, "lon": 46.6997, "city": "Riyadh" },
    { "lat": 20.5937, "lon": 78.9629, "city": "India" },
    { "lat": 48.2082, "lon": 16.3731, "city": "Vienna" },
    { "lat": 31.2304, "lon": 121.4737, "city": "Shanghai" },
    { "lat": 51.1657, "lon": 10.4515, "city": "Germany" },
    { "lat": 32.7767, "lon": -96.7970, "city": "Dallas" },
    { "lat": 41.3884, "lon": 2.1900, "city": "Barcelona" },
    { "lat": 37.9838, "lon": 23.7275, "city": "Athens" },
    { "lat": 52.3676, "lon": 13.9241, "city": "Berlin" },
    { "lat": 41.9028, "lon": 12.4964, "city": "Rome" },
    { "lat": 53.349805, "lon": -6.26031, "city": "Dublin" },
    { "lat": 38.9072, "lon": -77.0369, "city": "Washington D.C." },
    { "lat": 12.9716, "lon": 77.5946, "city": "Bangalore" },
    { "lat": 42.3601, "lon": -71.0589, "city": "Boston" },
    { "lat": 13.0827, "lon": 80.2707, "city": "Chennai" },
    { "lat": 23.8103, "lon": 90.4125, "city": "Dhaka" },
    { "lat": 40.748817, "lon": -73.985428, "city": "Queens" },
    { "lat": 39.7392, "lon": -104.9903, "city": "Denver" },
    { "lat": 22.3964, "lon": 114.1095, "city": "Hong Kong" },
    { "lat": 28.7041, "lon": 77.1025, "city": "Delhi" },
    { "lat": 28.7041, "lon": 77.1025, "city": "New Delhi" }
]
